id,ビーチ名,説明,住所,都道府県,緯度,経度,駐車場,電話番号,シャワー,公式HPのURL,写真,出典（URL）
13,らららサンビーチ,静岡県沼津市にある人口の海浜施設。３年連続で環境省が認定する「水質が特に良好な水浴場」に選ばれている。波も穏やかで、富士山を望みながら白い砂浜で優雅な時間を過ごすことができる。,静岡県沼津市西浦平沢517-4,静岡県,35.0199002,138.8590527,有（有料）,	055-943-2316,あり,http://www.city.numazu.shizuoka.jp/kankou/asobu/kaisuiyoku/rarara/,,
14,内海海水浴場,日本の渚百選にも選ばれるほど、きれいな水質を誇る海水浴場。名古屋市内からのアクセスが良く、シーズン中は多くの若者で賑わう。千鳥ヶ浜海岸などの複数の海岸から形成されている。,愛知県知多郡南知多町内海,愛知県,34.74172,136.8719214,有（有料）,0569-62-0985,あり,http://minamichita-kk.com,,
15,伊東オレンジビーチ,海岸の遊歩道に植えられているフェニックスとすばらしい水質で南国を感じることのできるビーチ。水質はAAと最高品筆を誇る。車でのアクセスも可能だが、JRの最寄の駅から徒歩5分ほどの場所に位置しているので、電車を使ってもよいだろう。,	静岡県伊東市湯川、松原,静岡県,34.9757371,139.0964834,有（有料）,	0557-37-6105,あり,http://itospa.com/leisure_sports/itospa-sea/%E4%BC%8A%E6%9D%B1%E3%82%AA%E3%83%AC%E3%83%B3%E3%82%B8%E3%83%93%E3%83%BC%E3%83%81/,,
16,大瀬海水浴場,スキューバダイビングのメッカとしても有名な海水浴場。海水浴のシーズンだけではなく、1年を通して日本中からダイバーが集まる。遠浅で内海なので波も静かで家族連れでも楽しめる。,静岡県沼津市西浦江梨,静岡県,35.0245623,138.784259,有（有料）,055-934-4746,あり,http://www.osezaki.jp/seawater.html,,
17,阿児の松原海水浴場,遠浅で波が穏やかな海水浴場。弓状に南北3kmにわたって砂浜が続いている。波は穏やかだが、サーフスポットとしても人気がある。,三重県志摩市阿児町甲賀,三重県,34.3310665,136.8751565,有（有料）,0599-46-0570,あり,http://www.kanko-shima.com/,,
