id,ビーチ名,説明,住所,都道府県,緯度,経度,駐車場,電話番号,シャワー,公式HPのURL,写真,出典（URL）
18,片瀬東浜海水浴場,来客数で全国有数の座を誇る、非常に人気の高い海水浴場。江の島海岸東浜海水浴場とも呼ばれる。日本の水浴場88選に2001年に選出されているが、水質自体はBとそれほど高品質ではない。若者が多く集まりシーズンには約30店舗もの海の家がオープンする。,神奈川県藤沢市片瀬海岸１丁目,神奈川県,35.307778,139.487194,有（有料）,0466-25-1111,あり,http://www.enoshima-beach.com/,hoge,http://www.ashinari.com/
19,片瀬西浜・鵠沼海水浴場,神奈川県藤沢市にある、全国1位の来客数を誇る海水浴場。通称「江ノ電」と呼ばれる江ノ島電鉄からのアクセスが非常によく、また江ノ島自体、また江ノ島水族館なのどの観光地の人気も相まって多くの人々が集まる。サーフィン発祥の地として知られるが、シーズン中は海水浴場でのサーフィンは禁止されている。,神奈川県藤沢市片瀬海岸西浜,神奈川県,35.310556,139.478056,有（有料）,0466-25-1111,あり,http://www.fujisawa-kanko.j,hoge,http://www.ashinari.com/
20,辻堂海水浴場,辻堂海浜公園のほど近い場所に位置する海水浴場。江ノ島からも近く、江ノ島を望みながら海を楽しむことができる。サーフィンスポットにもなっており、遊泳エリアから外れたところでサーフィンを楽しむことができる。,神奈川県藤沢市辻堂西海岸,神奈川県,35.3129049,139.4528495,有（有料）,0599-46-0573,あり,http://www.tsujido-lc.jp/beach/,hoge,https://commons.wikimedia.org/wiki/File:Tsujid%C5%8D_Kaigan_03.jpg
21,サザンビーチちがさき,サザンオールスターズの桑田佳祐が茅ヶ崎出身であることからこの名がついた海水浴場。非常に歴史が古く、100年の歴史を持った海の家も存在する。海水浴客だけではなく、サザンオールスターズがこの場所でライブを行ったことから、ファンにとっても観光スポットになっている。,神奈川県茅ヶ崎市中海岸４丁目４,神奈川県,35.318278,139.403833,有（有料）,0599-46-0574,あり,http://www.chigasaki-kankou.org/,hoge,https://commons.wikimedia.org/wiki/File:Southern_Beach_Chigasaki01.jpg
22,海の公園,全長は1kmにもなる人口の海浜施設。横浜市唯一の海水浴場でもある。海水浴だけではなく、ビーチバレー場やバーベキューもできるので、１日中楽しめるだろう。海自体はそれほど水質は良くないが、都心部からのアクセスのよさと遠浅で波も低いので家族連れに人気のスポットである。,神奈川県横浜市金沢区海の公園10,神奈川県,35.3395,139.635139,有（有料）,0599-46-0575,あり,http://www.umino-kouen.net/,hoge,http://www.ashinari.com/
